{
  "title": "🏝 澎湖三日遊",
  "subtitle": "4/26（五）— 4/28（日）· 鎖港郵局會館",
  "days": [
    {
      "label": "Day 1 · 4/26（五）",
      "theme": "抵達 · 夜遊市區",
      "stops": [
        {
          "name": "✈️ 澎湖機場",
          "depart": "18:10",
          "stay": 0,
          "note": "",
          "coords": {
            "lat": 23.561020574753133,
            "lng": 119.62948594417897
          }
        },
        {
          "name": "🏨 鎖港郵局會館",
          "depart": "18:45",
          "stay": 20,
          "note": "",
          "coords": {
            "lat": 23.525358046101026,
            "lng": 119.59696644417897
          },
          "arrive": "18:25",
          "_departUserSet": true
        },
        {
          "name": " 新村美食館",
          "depart": "20:35",
          "stay": 90,
          "note": "",
          "coords": {
            "lat": 23.57048805880574,
            "lng": 119.56947418650736
          },
          "arrive": "19:05",
          "_departUserSet": true
        },
        {
          "name": "市區中正路商圈",
          "depart": "21:25",
          "stay": 45,
          "note": "",
          "coords": {
            "lat": 23.568000590628067,
            "lng": 119.56705275743614
          },
          "arrive": "20:40",
          "_departUserSet": true
        },
        {
          "name": "🏨 鎖港郵局會館",
          "depart": "21:45",
          "stay": 0,
          "note": "抵達・休息",
          "coords": {
            "lat": 23.5253088606287,
            "lng": 119.59690207116421
          },
          "arrive": "21:45",
          "_departUserSet": true
        }
      ],
      "drives": [
        15,
        20,
        5,
        20
      ],
      "modes": [
        "drive",
        "drive",
        "walk",
        "drive"
      ]
    },
    {
      "label": "Day 2 · 4/27（六）",
      "theme": "西嶼半日遊 · 花火節",
      "stops": [
        {
          "name": "🏨 鎖港郵局會館 吃完早餐從容出發",
          "depart": "10:00",
          "stay": 0,
          "note": "",
          "coords": {
            "lat": 23.5253088606287,
            "lng": 119.59690207116421
          },
          "_departUserSet": true
        },
        {
          "name": "摩西分海，找地方吃或是買7-11",
          "depart": "12:00",
          "stay": 100,
          "note": "",
          "coords": {
            "lat": 23.598287050106705,
            "lng": 119.67247716931364
          },
          "arrive": "10:20",
          "_departUserSet": true
        },
        {
          "name": "澎湖水族館",
          "depart": "16:00",
          "stay": 215,
          "note": "",
          "coords": {
            "lat": 23.65016972434755,
            "lng": 119.60394526931364
          },
          "arrive": "12:25",
          "_departUserSet": true
        },
        {
          "name": "池東大菓葉玄武岩吃旁邊西嶼吃晚餐",
          "depart": "19:00",
          "stay": 155,
          "note": "大菓葉・鯨魚洞",
          "coords": {
            "lat": 23.59856131772855,
            "lng": 119.51675351903485
          },
          "arrive": "16:25",
          "_departUserSet": true
        },
        {
          "name": "🏨 鎖港郵局會館",
          "depart": "21:15",
          "stay": 90,
          "note": "梳洗",
          "coords": {
            "lat": 23.5253088606287,
            "lng": 119.59690207116421
          },
          "arrive": "19:45"
        },
        {
          "name": "無人海灘看流星或觀音亭看煙火",
          "depart": "01:00",
          "stay": 200,
          "note": "",
          "coords": {
            "lat": 23.568847825856476,
            "lng": 119.56239712594792
          },
          "arrive": "21:40",
          "_departUserSet": true
        }
      ],
      "drives": [
        20,
        25,
        25,
        45,
        25,
        20
      ]
    },
    {
      "label": "Day 3 · 4/28（日）",
      "theme": "古蹟探訪 · 返程",
      "stops": [
        {
          "name": "🏨 鎖港郵局會館",
          "depart": "09:15",
          "stay": 0,
          "note": "",
          "coords": {
            "lat": 23.5253088606287,
            "lng": 119.59690207116421
          }
        },
        {
          "name": "澎湖縣南海立體停車場",
          "depart": "10:35",
          "stay": 60,
          "note": "",
          "coords": {
            "lat": 23.567468297852084,
            "lng": 119.5706976124363
          },
          "arrive": "09:35"
        },
        {
          "name": "🏛 舊郵便局（澎湖水下文化遺產博物館）",
          "depart": "12:55",
          "stay": 125,
          "note": "",
          "coords": {
            "lat": 23.56374738106533,
            "lng": 119.56396447301476
          },
          "arrive": "10:50"
        },
        {
          "name": "✈️ 澎湖機場",
          "depart": "13:15",
          "stay": 0,
          "note": "班機 15:30",
          "arrive": "13:15"
        }
      ],
      "drives": [
        20,
        15,
        20
      ],
      "modes": [
        "drive",
        "walk",
        "drive"
      ]
    }
  ]
}